rosbagTimestamp,header,seq,stamp,secs,nsecs,frame_id,theodolite_time,secs,nsecs,theodolite_id,status,azimuth,elevation,distance
1645113668216139316,,371,,1645113667,277283779,"""theodolite_n_3""",,1616542522,792895644,3,0,5.10582845693,1.50198668695,6.61828738276
1645113668216344136,,372,,1645113667,404836659,"""theodolite_n_1""",,1617284508,619445202,1,0,5.0060263101,1.45976701478,6.80139902653
1645113668216602523,,373,,1645113667,556160382,"""theodolite_n_2""",,1616541855,516129180,2,0,4.55734219377,1.49968785849,5.50340235915
1645113668245984752,,374,,1645113667,676208518,"""theodolite_n_3""",,1616542523,191820383,3,0,5.10582793857,1.50198669637,6.61846738278
1645113668369492860,,375,,1645113667,806100617,"""theodolite_n_1""",,1617284509,20709160,1,0,5.00602574461,1.45976303269,6.80119901277
1645113668493950654,,376,,1645113667,956098663,"""theodolite_n_2""",,1616541855,916067461,2,0,4.55734257076,1.49968534115,5.50337235355
1645113668617823324,,377,,1645113668,77439456,"""theodolite_n_3""",,1616542523,593051321,3,0,5.10582773437,1.50198558481,6.61846738039
1645113668740412925,,378,,1645113668,206138325,"""theodolite_n_1""",,1617284509,420746868,1,0,5.00602544616,1.45976001589,6.80139900234
1645113668863399369,,379,,1645113668,356093715,"""theodolite_n_2""",,1616541856,316062513,2,0,4.55734235085,1.49968390625,5.50268235037
1645113668986827143,,380,,1645113668,476290601,"""theodolite_n_3""",,1616542523,991902466,3,0,5.10582702751,1.50198596332,6.6183873812
1645113669109891807,,381,,1645113668,606100981,"""theodolite_n_1""",,1617284509,820709524,1,0,5.00602477072,1.45976003122,6.80110900239
1645113669234179724,,382,,1645113668,756072621,"""theodolite_n_2""",,1616541856,716041419,2,0,4.55734209952,1.49968127689,5.50300234453
1645113669363631385,,383,,1645113668,877702112,"""theodolite_n_3""",,1616542524,393313977,3,0,5.10582855118,1.50198515413,6.61869737947
1645113669480782781,,384,,1645113669,6082231,"""theodolite_n_1""",,1617284510,220690774,1,0,5.00602506917,1.45975990405,6.80084900195
1645113669605493840,,385,,1645113669,158178559,"""theodolite_n_2""",,1616541857,118147357,2,0,4.55734392165,1.49967868919,5.50312233878
1645113669727241214,,386,,1645113669,273889612,"""theodolite_n_3""",,1616542524,789501477,3,0,5.10582735737,1.50198706512,6.61821738357
1645113669850759372,,387,,1645113669,406091710,"""theodolite_n_1""",,1617284510,620700253,1,0,5.00602403244,1.45975736522,6.80118899317
1645113669975155979,,388,,1645113669,555718402,"""theodolite_n_2""",,1616541857,515687200,2,0,4.55734348182,1.49967768261,5.50292233654
1645113670097714975,,389,,1645113669,675146330,"""theodolite_n_3""",,1616542525,190758195,3,0,5.10582683901,1.50198797662,6.61811738553
1645113670221084416,,390,,1645113669,806100876,"""theodolite_n_1""",,1617284511,20709419,1,0,5.0060267028,1.45975013167,6.80088896816
1645113670345516118,,391,,1645113669,955678350,"""theodolite_n_2""",,1616541857,915647148,2,0,4.55734305771,1.4996766039,5.50381233415
1645113670468936294,,392,,1645113670,73888361,"""theodolite_n_3""",,1616542525,589500226,3,0,5.10582594366,1.50198707482,6.61793738359
1645113670593045266,,393,,1645113670,206141501,"""theodolite_n_1""",,1617284511,420750044,1,0,5.00602909041,1.45974583551,6.80129895331
1645113670715748443,,394,,1645113669,955678350,"""theodolite_n_2""",,1616541857,915647148,2,0,4.55734305771,1.4996766039,5.50381233415
1645113670841119926,,395,,1645113670,73888361,"""theodolite_n_3""",,1616542525,589500226,3,0,5.10582594366,1.50198707482,6.61793738359
1645113670962333694,,396,,1645113670,206141501,"""theodolite_n_1""",,1617284511,420750044,1,0,5.00602909041,1.45974583551,6.80129895331
1645113671085535737,,397,,1645113670,355609860,"""theodolite_n_2""",,1616541858,315578658,2,0,4.55734371744,1.49967678543,5.50393233455
1645113671214438231,,398,,1645113670,473985028,"""theodolite_n_3""",,1616542525,989596893,3,0,5.10582660339,1.50198775779,6.61810738506
1645113671333761037,,399,,1645113670,606088689,"""theodolite_n_1""",,1617284511,820697232,1,0,5.00603210634,1.45974458491,6.80066894899
1645113671459778319,,400,,1645113670,755595850,"""theodolite_n_2""",,1616541858,715564648,2,0,4.55734392165,1.4996762253,5.50387233331
1645113671580030444,,401,,1645113670,874039611,"""theodolite_n_3""",,1616542526,389651476,3,0,5.10582756158,1.50198776714,6.61783738508
1645113671704244885,,402,,1645113671,6070615,"""theodolite_n_1""",,1617284512,220679158,1,0,5.00603251474,1.45974447361,6.8001089486
1645113671829260614,,403,,1645113671,155554964,"""theodolite_n_2""",,1616541859,115523762,2,0,4.55734395306,1.49967540138,5.50407233148
1645113671952763650,,404,,1645113671,274036590,"""theodolite_n_3""",,1616542526,789648455,3,0,5.10582691755,1.50198707205,6.61801738359
1645113672074291796,,405,,1645113671,406072594,"""theodolite_n_1""",,1617284512,620681137,1,0,5.00603251474,1.45974465336,6.80055894922
1645113672200182033,,406,,1645113671,555557308,"""theodolite_n_2""",,1616541859,515526106,2,0,4.55734324621,1.49967286839,5.50404232585
1645113672322262704,,407,,1645113671,675342163,"""theodolite_n_3""",,1616542527,190954028,3,0,5.10582627353,1.50198766351,6.61811738486
1645113672445675505,,408,,1645113671,806061761,"""theodolite_n_1""",,1617284513,20670304,1,0,5.00603300169,1.45974491202,6.80010895012
1645113672569105459,,409,,1645113671,955544756,"""theodolite_n_2""",,1616541859,915513554,2,0,4.55734368603,1.49967194946,5.50396232381
1645113672813553989,,410,,1645113672,205925094,"""theodolite_n_1""",,1617284513,420533637,1,0,5.00603344151,1.45974584121,6.80059895333
1645113672943797508,,411,,1645113672,355430433,"""theodolite_n_2""",,1616541860,315399231,2,0,4.55734357607,1.49966983433,5.50432231911
1645113673060463163,,412,,1645113672,474191017,"""theodolite_n_3""",,1616542527,989802882,3,0,5.10582448282,1.50198888848,6.61800738749
1645113673186049743,,413,,1645113672,605805511,"""theodolite_n_1""",,1617284513,820414054,1,0,5.006034007,1.45974924766,6.80072896511
1645113673308405528,,414,,1645113672,755588297,"""theodolite_n_2""",,1616541860,715557095,2,0,4.5573436232,1.49966996416,5.5042323194
1645113673431382233,,415,,1645113672,874181641,"""theodolite_n_3""",,1616542528,389793506,3,0,5.10582621069,1.50198909512,6.61791738794
1645113673557562030,,416,,1645113673,5793948,"""theodolite_n_1""",,1617284514,220402491,1,0,5.00603468244,1.45975283842,6.80151897752
1645113673679903345,,417,,1645113673,155601891,"""theodolite_n_2""",,1616541861,115570689,2,0,4.55734429864,1.49967002881,5.50419231954
1645113673802570840,,418,,1645113673,275662995,"""theodolite_n_3""",,1616542528,791274860,3,0,5.105827216,1.5019889644,6.61852738766
1645113673926832166,,419,,1645113673,405805302,"""theodolite_n_1""",,1617284514,620413845,1,0,5.00603633178,1.45975743042,6.8020289934
1645113674050686830,,420,,1645113673,555561109,"""theodolite_n_2""",,1616541861,515529907,2,0,4.55734434576,1.49966993805,5.50413231934
1645113674177022997,,421,,1645113673,675869454,"""theodolite_n_3""",,1616542529,191481319,3,0,5.10582778149,1.50198982304,6.6185973895
1645113674297128482,,422,,1645113673,805845823,"""theodolite_n_1""",,1617284515,20454366,1,0,5.006035782,1.45975815033,6.80173899589
1645113674423318244,,423,,1645113673,955589442,"""theodolite_n_2""",,1616541861,915558240,2,0,4.55734447143,1.49966980595,5.50366231905
1645113674544988169,,424,,1645113674,74637266,"""theodolite_n_3""",,1616542529,590249131,3,0,5.10582699609,1.50198980462,6.61867738946
1645113674667362601,,425,,1645113674,205831604,"""theodolite_n_1""",,1617284515,420440147,1,0,5.00603663023,1.45975831398,6.80130899645
1645113674791259763,,426,,1645113674,355712828,"""theodolite_n_2""",,1616541862,315681626,2,0,4.55734378028,1.49966987579,5.5035223192
1645113674914557700,,427,,1645113674,475954297,"""theodolite_n_3""",,1616542529,991566162,3,0,5.10582632065,1.50198938884,6.61847738857
1645113675039322537,,428,,1645113674,605802020,"""theodolite_n_1""",,1617284515,820410563,1,0,5.00603628465,1.45975859614,6.80159899743
1645113675165520389,,429,,1645113674,755720796,"""theodolite_n_2""",,1616541862,715689594,2,0,4.55734414156,1.49966969634,5.5033623188
1645113675293807094,,430,,1645113674,874650807,"""theodolite_n_3""",,1616542530,390262672,3,0,5.10582589653,1.50198939161,6.61839738857
1645113675412753044,,431,,1645113675,5816708,"""theodolite_n_1""",,1617284516,220425251,1,0,5.00603476098,1.45976638563,6.80174902436
1645113675531598975,,432,,1645113674,755720796,"""theodolite_n_2""",,1616541862,715689594,2,0,4.55734414156,1.49966969634,5.5033623188
1645113675656463164,,433,,1645113675,275964141,"""theodolite_n_3""",,1616542530,791576006,3,0,5.10582636777,1.50199265039,6.61787739558
1645113675778166538,,434,,1645113675,5816708,"""theodolite_n_1""",,1617284516,220425251,1,0,5.00603476098,1.45976638563,6.80174902436
1645113675902208825,,435,,1645113675,155737411,"""theodolite_n_2""",,1616541863,115706209,2,0,4.55734396877,1.49966971529,5.50390231885
1645113676026434367,,436,,1645113675,275964141,"""theodolite_n_3""",,1616542530,791576006,3,0,5.10582636777,1.50199265039,6.61787739558
1645113676149648368,,437,,1645113675,405828895,"""theodolite_n_1""",,1617284516,620437438,1,0,5.00603143089,1.45977340672,6.80132904863
1645113676273318316,,438,,1645113675,556067931,"""theodolite_n_2""",,1616541863,516036729,2,0,4.55734439289,1.49967087035,5.50365232141
1645113676397223917,,439,,1645113675,674668724,"""theodolite_n_3""",,1616542531,190280589,3,0,5.10582540959,1.50199243931,6.61854739513
1645113676528787974,,440,,1645113675,805808843,"""theodolite_n_1""",,1617284517,20417386,1,0,5.00602960877,1.45977589065,6.80113905722
1645113676647081844,,441,,1645113675,956039598,"""theodolite_n_2""",,1616541863,916008396,2,0,4.55734433005,1.49967259766,5.50383232525
1645113676773764021,,442,,1645113676,75948046,"""theodolite_n_3""",,1616542531,591559911,3,0,5.10582660339,1.50199119453,6.61877739245
1645113677012024040,,443,,1645113676,356091056,"""theodolite_n_2""",,1616541864,316059854,2,0,4.55734444001,1.49967291565,5.50343232596
1645113677136287129,,444,,1645113676,474677057,"""theodolite_n_3""",,1616542531,990288922,3,0,5.10582636777,1.50199062329,6.61899739122
1645113677256941495,,445,,1645113676,605667593,"""theodolite_n_1""",,1617284517,820276136,1,0,5.00602850921,1.45977527122,6.80100905507
1645113677389127935,,446,,1645113676,756101993,"""theodolite_n_2""",,1616541864,716070791,2,0,4.55734415727,1.49967286425,5.50412232584
1645113677507554802,,447,,1645113676,875977057,"""theodolite_n_3""",,1616542532,391588922,3,0,5.10582567662,1.50199059884,6.61834739117
1645113677630990895,,448,,1645113677,5674155,"""theodolite_n_1""",,1617284518,220282698,1,0,5.0060290747,1.45977331701,6.80124904832
1645113677755979351,,449,,1645113677,156090014,"""theodolite_n_2""",,1616541865,116058812,2,0,4.55734423581,1.49967170163,5.50361232326
1645113677886909482,,450,,1645113677,274789973,"""theodolite_n_3""",,1616542532,790401838,3,0,5.10582531534,1.50199046591,6.61811739088
1645113678000051075,,451,,1645113677,405688634,"""theodolite_n_1""",,1617284518,620297177,1,0,5.00602893333,1.45977247976,6.80138904543
1645113678122483708,,452,,1645113677,556086733,"""theodolite_n_2""",,1616541865,516055531,2,0,4.55734433005,1.49967064966,5.50338232092
1645113678245566989,,453,,1645113677,674786900,"""theodolite_n_3""",,1616542533,190398765,3,0,5.10582369742,1.50198951346,6.61894738884
1645113678370507889,,454,,1645113677,805683321,"""theodolite_n_1""",,1617284519,20291864,1,0,5.00602857204,1.45976793084,6.8012490297
1645113678493449730,,455,,1645113677,956052253,"""theodolite_n_2""",,1616541865,916021051,2,0,4.55734400019,1.49966982357,5.50332231909
1645113678618364595,,456,,1645113678,74786379,"""theodolite_n_3""",,1616542533,590398244,3,0,5.10582567662,1.50199189544,6.61797739396
1645113678741141608,,457,,1645113678,205593061,"""theodolite_n_1""",,1617284519,420201604,1,0,5.00602659284,1.45976321371,6.80132901339
1645113678863559357,,458,,1645113678,356062566,"""theodolite_n_2""",,1616541866,316031364,2,0,4.5573444243,1.49966970482,5.50380231882
1645113678990337800,,459,,1645113678,474947837,"""theodolite_n_3""",,1616542533,990559702,3,0,5.10582679189,1.50199102952,6.6181173921
1645113679110199057,,460,,1645113678,605585248,"""theodolite_n_1""",,1617284519,820193791,1,0,5.0060259174,1.45975855869,6.8014189973
1645113679236187498,,461,,1645113678,756036941,"""theodolite_n_2""",,1616541866,716005739,2,0,4.55734404731,1.49967025407,5.50407232004
1645113679367868837,,462,,1645113678,874903254,"""theodolite_n_3""",,1616542534,390515119,3,0,5.10582573945,1.50199028185,6.61800739049
1645113679485503892,,463,,1645113679,5556706,"""theodolite_n_1""",,1617284520,220165249,1,0,5.00602565036,1.45975716855,6.80105899249
1645113679612260309,,464,,1645113679,156030013,"""theodolite_n_2""",,1616541867,115998811,2,0,4.55734462851,1.49967046306,5.50366232051
1645113679730570265,,465,,1645113679,274914139,"""theodolite_n_3""",,1616542534,790526004,3,0,5.10582363459,1.50198913689,6.61806738803
1645113679852964124,,466,,1645113679,405539206,"""theodolite_n_1""",,1617284520,620147749,1,0,5.00602579173,1.45975725444,6.80061899279
1645113679981531766,,467,,1645113679,556054544,"""theodolite_n_2""",,1616541867,516023342,2,0,4.55734371744,1.49966714116,5.50406231313
1645113680100373608,,468,,1645113679,674893253,"""theodolite_n_3""",,1616542535,190505118,3,0,5.10582492264,1.50199042934,6.61781739081
1645113680224482064,,469,,1645113679,805422748,"""theodolite_n_1""",,1617284521,20031291,1,0,5.00602642005,1.45975715013,6.80051899243
1645113680348513081,,470,,1645113679,956020117,"""theodolite_n_2""",,1616541867,915988915,2,0,4.55734492696,1.49966294708,5.50378230381
1645113680471255453,,471,,1645113680,74887160,"""theodolite_n_3""",,1616542535,590499025,3,0,5.10582660339,1.50199134049,6.61772739276
1645113680595571072,,472,,1645113680,205470820,"""theodolite_n_1""",,1617284521,420079363,1,0,5.00602717403,1.45975152307,6.80092897298
1645113680729094986,,473,,1645113679,956020117,"""theodolite_n_2""",,1616541867,915988915,2,0,4.55734492696,1.49966294708,5.50378230381
1645113680849076980,,474,,1645113680,74887160,"""theodolite_n_3""",,1616542535,590499025,3,0,5.10582660339,1.50199134049,6.61772739276
1645113680965262479,,475,,1645113680,205470820,"""theodolite_n_1""",,1617284521,420079363,1,0,5.00602717403,1.45975152307,6.80092897298
1645113681087600852,,476,,1645113680,356066732,"""theodolite_n_2""",,1616541868,316035530,2,0,4.55734404731,1.49966097868,5.50312229944
1645113681211244149,,477,,1645113680,474773930,"""theodolite_n_3""",,1616542535,990385795,3,0,5.10582655627,1.5019945983,6.61768739977
1645113681335056228,,478,,1645113680,605526497,"""theodolite_n_1""",,1617284521,820135040,1,0,5.00603284461,1.45974556096,6.80056895236
1645113681459271954,,479,,1645113680,756068346,"""theodolite_n_2""",,1616541868,716037144,2,0,4.55734387452,1.49966014585,5.50319229759
1645113681581161746,,480,,1645113680,876049659,"""theodolite_n_3""",,1616542536,391661524,3,0,5.10582387021,1.50199318269,6.61787739672
1645113681703695538,,481,,1645113681,5414518,"""theodolite_n_1""",,1617284522,220023061,1,0,5.00603619041,1.45974212193,6.80075894047
1645113681828188490,,482,,1645113681,156063502,"""theodolite_n_2""",,1616541869,116032300,2,0,4.55734411014,1.49965938649,5.5030522959
1645113681954268949,,483,,1645113681,276035440,"""theodolite_n_3""",,1616542536,791647305,3,0,5.10582426291,1.50199275299,6.6176273958
1645113682074471483,,484,,1645113681,405420612,"""theodolite_n_1""",,1617284522,620029155,1,0,5.00603744704,1.45974238123,6.80088894137
1645113682198244841,,485,,1645113681,556120846,"""theodolite_n_2""",,1616541869,516089644,2,0,4.55734429864,1.49965874253,5.50340229447
1645113682320734881,,486,,1645113681,677074503,"""theodolite_n_3""",,1616542537,192686368,3,0,5.10582845693,1.50199128673,6.61882739265
1645113682443994332,,487,,1645113681,805418945,"""theodolite_n_1""",,1617284523,20027488,1,0,5.00603787116,1.45974241998,6.8022289415
1645113682569116659,,488,,1645113681,956079127,"""theodolite_n_2""",,1616541869,916047925,2,0,4.5573440159,1.49965833721,5.50307229357
1645113682689516136,,489,,1645113682,75846273,"""theodolite_n_3""",,1616542537,591458138,3,0,5.10582616357,1.50199052756,6.61859739102
1645113682932851648,,490,,1645113682,356085012,"""theodolite_n_2""",,1616541870,316053810,2,0,4.55734418868,1.49965825701,5.50341229339
1645113683056450757,,491,,1645113682,475882471,"""theodolite_n_3""",,1616542537,991494336,3,0,5.10582639919,1.50199140775,6.61849739291
1645113683183111265,,492,,1645113682,605436809,"""theodolite_n_1""",,1617284523,820045352,1,0,5.00603864085,1.45974376897,6.80247894616
1645113683302099236,,493,,1645113682,756068293,"""theodolite_n_2""",,1616541870,716037091,2,0,4.55734429864,1.49965806677,5.50376229297
1645113683426045294,,494,,1645113682,876945596,"""theodolite_n_3""",,1616542538,392557461,3,0,5.1058258337,1.50199329622,6.61866739697
1645113683550217162,,495,,1645113683,5419153,"""theodolite_n_1""",,1617284524,220027696,1,0,5.00603887647,1.45974669976,6.8021289563
1645113683673536055,,496,,1645113683,156088814,"""theodolite_n_2""",,1616541871,116057612,2,0,4.55734395306,1.49965810272,5.50367229305
1645113683798046392,,497,,1645113683,278217679,"""theodolite_n_3""",,1616542538,793829544,3,0,5.10582110561,1.50199529006,6.61850740125
1645113683921077342,,498,,1645113683,405469361,"""theodolite_n_1""",,1617284524,620077904,1,0,5.00604024306,1.45975141953,6.80199897262
1645113684044004519,,499,,1645113683,556024647,"""theodolite_n_2""",,1616541871,515993445,2,0,4.55734437718,1.49965821535,5.5036122933
1645113684170542055,,500,,1645113683,676821794,"""theodolite_n_3""",,1616542539,192433659,3,0,5.10582211091,1.50199665808,6.61878740419
1645113684291099893,,501,,1645113683,805425923,"""theodolite_n_1""",,1617284525,20034466,1,0,5.00603944195,1.45975531877,6.8019889861
1645113684416045244,,502,,1645113683,956032824,"""theodolite_n_2""",,1616541871,916001622,2,0,4.55734418868,1.49965821328,5.50365229329
1645113684538267929,,503,,1645113684,78184137,"""theodolite_n_3""",,1616542539,593796002,3,0,5.10582358746,1.50199254606,6.61817739536
1645113684661130425,,504,,1645113684,206671496,"""theodolite_n_1""",,1617284525,421280039,1,0,5.00603981895,1.4597587674,6.80072899802
1645113684784380232,,505,,1645113684,356060480,"""theodolite_n_2""",,1616541872,316029278,2,0,4.55734423581,1.49965822332,5.50406229332
1645113684907825226,,506,,1645113684,473605022,"""theodolite_n_3""",,1616542539,989216887,3,0,5.10583048326,1.50199435619,6.61789739925
1645113685034720937,,507,,1645113684,606710923,"""theodolite_n_1""",,1617284525,821319466,1,0,5.00603986607,1.45975885797,6.80108899833
1645113685154166089,,508,,1645113684,756063709,"""theodolite_n_2""",,1616541872,716032507,2,0,4.55734381169,1.49965801455,5.50356229285
1645113685278697037,,509,,1645113684,875086845,"""theodolite_n_3""",,1616542540,390698710,3,0,5.10583170848,1.50199464672,6.61809739987
1645113685402780727,,510,,1645113685,6682068,"""theodolite_n_1""",,1617284526,221290611,1,0,5.00603963045,1.45975918096,6.80119899945
1645113685524471155,,511,,1645113684,756063709,"""theodolite_n_2""",,1616541872,716032507,2,0,4.55734381169,1.49965801455,5.50356229285
1645113685650333767,,512,,1645113684,875086845,"""theodolite_n_3""",,1616542540,390698710,3,0,5.10583170848,1.50199464672,6.61809739987
1645113685774003614,,513,,1645113685,6682068,"""theodolite_n_1""",,1617284526,221290611,1,0,5.00603963045,1.45975918096,6.80119899945
1645113685898263868,,514,,1645113685,156073292,"""theodolite_n_2""",,1616541873,116042090,2,0,4.5573444243,1.49965804575,5.50326229292
1645113686021149955,,515,,1645113685,275397574,"""theodolite_n_3""",,1616542540,791009439,3,0,5.10583159852,1.50199428241,6.61776739909
1645113686144156980,,516,,1645113685,405468318,"""theodolite_n_1""",,1617284526,620076861,1,0,5.00604159395,1.45976097628,6.80129900566
1645113686270086548,,517,,1645113685,556060584,"""theodolite_n_2""",,1616541873,516029382,2,0,4.5573438274,1.49965798015,5.50362229278
1645113686390524182,,518,,1645113685,675864345,"""theodolite_n_3""",,1616542541,191476210,3,0,5.10583103304,1.5019957409,6.61814740222
1645113686515259537,,519,,1645113685,805478474,"""theodolite_n_1""",,1617284527,20087017,1,0,5.00603805965,1.4597679905,6.80100902991
1645113686639225294,,520,,1645113685,956111261,"""theodolite_n_2""",,1616541873,916080059,2,0,4.55734400019,1.49965849428,5.50336229392
1645113686762852761,,521,,1645113686,75030074,"""theodolite_n_3""",,1616542541,590641939,3,0,5.10582875538,1.50199655881,6.61803740398
1645113686886842402,,522,,1645113686,207974047,"""theodolite_n_1""",,1617284527,422582590,1,0,5.00603647315,1.45977275717,6.80176904638
1645113687008580678,,523,,1645113686,356066469,"""theodolite_n_2""",,1616541874,316035267,2,0,4.55734415727,1.49965862679,5.50352229421
1645113687133182236,,524,,1645113686,475317313,"""theodolite_n_3""",,1616542541,990929178,3,0,5.10582933658,1.50199726714,6.6179274055
1645113687258126332,,525,,1645113686,606728214,"""theodolite_n_1""",,1617284527,821336757,1,0,5.00603452536,1.45977466632,6.80178905298
1645113687381192950,,526,,1645113686,756163708,"""theodolite_n_2""",,1616541874,716132506,2,0,4.55734439289,1.49965863755,5.50452229424
1645113687504856959,,527,,1645113686,874756272,"""theodolite_n_3""",,1616542542,390368137,3,0,5.10583167706,1.50200002777,6.61777741144
1645113687629038363,,528,,1645113687,6823005,"""theodolite_n_1""",,1617284528,221431548,1,0,5.00603384992,1.4597748227,6.80208905352
1645113687753212724,,529,,1645113687,156190583,"""theodolite_n_2""",,1616541875,116159381,2,0,4.55734411014,1.49965849985,5.50446229393
1645113687996955291,,530,,1645113687,405544620,"""theodolite_n_1""",,1617284528,620153163,1,0,5.00603419549,1.45977446945,6.8019590523
1645113688119760660,,531,,1645113687,556167198,"""theodolite_n_2""",,1616541875,516135996,2,0,4.5573438274,1.49965871371,5.5045622944
1645113688243821094,,532,,1645113687,674834032,"""theodolite_n_3""",,1616542543,190445897,3,0,5.10583444167,1.5020003722,6.61777741218
1645113688367960506,,533,,1645113687,805544619,"""theodolite_n_1""",,1617284529,20153162,1,0,5.00603524793,1.45977394079,6.80188905048
1645113688491981833,,534,,1645113687,956034854,"""theodolite_n_2""",,1616541875,916003652,2,0,4.5573444243,1.49965865952,5.50470229428
1645113688615392000,,535,,1645113688,75748979,"""theodolite_n_3""",,1616542543,591360844,3,0,5.10583552552,1.50200109218,6.61642741372
1645113688741275046,,536,,1645113688,205576911,"""theodolite_n_1""",,1617284529,420185454,1,0,5.00603160368,1.45977259637,6.80184904583
1645113688862482944,,537,,1645113688,357333864,"""theodolite_n_2""",,1616541876,317302662,2,0,4.55734415727,1.49965883721,5.50429229468
1645113688986930379,,538,,1645113688,474770229,"""theodolite_n_3""",,1616542543,990382094,3,0,5.10583594963,1.50200368819,6.6183174193
1645113689109192193,,539,,1645113688,605550140,"""theodolite_n_1""",,1617284529,820158683,1,0,5.00603033134,1.45976785374,6.80181902943
1645113689233585176,,540,,1645113688,756066103,"""theodolite_n_2""",,1616541876,716034901,2,0,4.55734437718,1.49965882665,5.50389229466
1645113689357189963,,541,,1645113688,875068250,"""theodolite_n_3""",,1616542544,390680115,3,0,5.10583725339,1.50200408056,6.61783742015
1645113689481447953,,542,,1645113689,5529723,"""theodolite_n_1""",,1617284530,220138266,1,0,5.00602783377,1.45976401838,6.80150901617
1645113689605900262,,543,,1645113689,156032301,"""theodolite_n_2""",,1616541877,116001099,2,0,4.55734392165,1.49966342991,5.50352230488
1645113689730946364,,544,,1645113689,275359291,"""theodolite_n_3""",,1616542544,790971156,3,0,5.10583800737,1.50200405486,6.61812742009
1645113689852031525,,545,,1645113689,405562327,"""theodolite_n_1""",,1617284530,620170870,1,0,5.00602830501,1.45975914838,6.80151899934
1645113689976345836,,546,,1645113689,556318864,"""theodolite_n_2""",,1616541877,516287662,2,0,4.55734404731,1.4996803935,5.50314234257
1645113690100124799,,547,,1645113689,675757833,"""theodolite_n_3""",,1616542545,191369698,3,0,5.10583852574,1.50200434816,6.61824742072
1645113690223448038,,548,,1645113689,805562900,"""theodolite_n_1""",,1617284531,20171443,1,0,5.00602788089,1.4597586959,6.80148899777
1645113690346321319,,549,,1645113689,955323082,"""theodolite_n_2""",,1616541877,915291880,2,0,4.5573444243,1.49968100418,5.50313234392
1645113690470266912,,550,,1645113690,74550124,"""theodolite_n_3""",,1616542545,590161989,3,0,5.10583814875,1.50200526376,6.61757742269
1645113690594126452,,551,,1645113690,205557066,"""theodolite_n_1""",,1617284531,420165609,1,0,5.00602755103,1.45975834985,6.80151899658
1645113690717219136,,552,,1645113689,955323082,"""theodolite_n_2""",,1616541877,915291880,2,0,4.5573444243,1.49968100418,5.50313234392
1645113690841512080,,553,,1645113690,74550124,"""theodolite_n_3""",,1616542545,590161989,3,0,5.10583814875,1.50200526376,6.61757742269
1645113690965648198,,554,,1645113690,205557066,"""theodolite_n_1""",,1617284531,420165609,1,0,5.00602755103,1.45975834985,6.80151899658
1645113691087572218,,555,,1645113690,355331884,"""theodolite_n_2""",,1616541878,315300682,2,0,4.55734400019,1.4996807924,5.50299234345
1645113691210899536,,556,,1645113690,475303666,"""theodolite_n_3""",,1616542545,990915531,3,0,5.10583816445,1.50200517329,6.6174774225
1645113691334427678,,557,,1645113690,605438785,"""theodolite_n_1""",,1617284531,820047328,1,0,5.00602736253,1.45975794507,6.80117899518
1645113691459492617,,558,,1645113690,755396728,"""theodolite_n_2""",,1616541878,715365526,2,0,4.55734385882,1.49968015218,5.50357234203
1645113691584290260,,559,,1645113690,875339551,"""theodolite_n_3""",,1616542546,390951416,3,0,5.10583888702,1.50200531329,6.6184074228
1645113691704515630,,560,,1645113691,5286077,"""theodolite_n_1""",,1617284532,219894620,1,0,5.00602817934,1.45975302534,6.80064897817
1645113691828128009,,561,,1645113691,155338342,"""theodolite_n_2""",,1616541879,115307140,2,0,4.55734420439,1.49968040448,5.50323234259
1645113691951978980,,562,,1645113691,275643874,"""theodolite_n_3""",,1616542546,791255739,3,0,5.10583777175,1.50200530518,6.61773742278
1645113692076755670,,563,,1645113691,406421858,"""theodolite_n_1""",,1617284532,621030401,1,0,5.0060296716,1.45974594479,6.80100895369
1645113692199563386,,564,,1645113691,555307977,"""theodolite_n_2""",,1616541879,515276775,2,0,4.55734395306,1.49968129056,5.50334234456
1645113692323444414,,565,,1645113691,674894395,"""theodolite_n_3""",,1616542547,190506260,3,0,5.10583863569,1.50200512431,6.61798742239
1645113692447965120,,566,,1645113691,805413889,"""theodolite_n_1""",,1617284533,20022432,1,0,5.00602876054,1.45974114852,6.8008089371
1645113692571835871,,567,,1645113691,955334592,"""theodolite_n_2""",,1616541879,915303390,2,0,4.55734367032,1.49968444739,5.50371235157
1645113692694513874,,568,,1645113692,74736426,"""theodolite_n_3""",,1616542547,590348291,3,0,5.10583838436,1.5020055254,6.61770742325
1645113692819631590,,569,,1645113692,205434722,"""theodolite_n_1""",,1617284533,420043265,1,0,5.00602894903,1.45973901011,6.80097892971
1645113692940086344,,570,,1645113692,355318394,"""theodolite_n_2""",,1616541880,315287192,2,0,4.55734429864,1.49968623096,5.50371235553
1645113693063669699,,571,,1645113692,474785592,"""theodolite_n_3""",,1616542547,990397457,3,0,5.10583866711,1.50200593495,6.61808742413
1645113693187175605,,572,,1645113692,605475816,"""theodolite_n_1""",,1617284533,820084359,1,0,5.00602869771,1.45973923196,6.80092893048
1645113693310710422,,573,,1645113692,755320112,"""theodolite_n_2""",,1616541880,715288910,2,0,4.55734404731,1.49968736033,5.50305235804
1645113693434198459,,574,,1645113692,876156790,"""theodolite_n_3""",,1616542548,391768655,3,0,5.10583849432,1.50200607135,6.61821742443
1645113693560286431,,575,,1645113693,5458524,"""theodolite_n_1""",,1617284534,220067067,1,0,5.0060284935,1.45973907941,6.80114892995
1645113693682356350,,576,,1645113693,155352560,"""theodolite_n_2""",,1616541881,115321358,2,0,4.5573438274,1.49968774545,5.50377235889
1645113693926976754,,577,,1645113693,405467482,"""theodolite_n_1""",,1617284534,620076025,1,0,5.00602935744,1.45973931639,6.80110893077
1645113694051301667,,578,,1645113693,555310008,"""theodolite_n_2""",,1616541881,515278806,2,0,4.55734423581,1.499687936,5.50281235932
1645113694172015317,,579,,1645113693,676436842,"""theodolite_n_3""",,1616542549,192048707,3,0,5.10583907552,1.50200601295,6.6185474243
1645113694297109488,,580,,1645113693,805436753,"""theodolite_n_1""",,1617284535,20045296,1,0,5.00603018996,1.45974170458,6.80124893903
1645113694418479302,,581,,1645113693,955350112,"""theodolite_n_2""",,1616541881,915318910,2,0,4.55734409444,1.4996881483,5.50294235979
1645113694542432668,,582,,1645113694,76422363,"""theodolite_n_3""",,1616542549,592034228,3,0,5.1058392483,1.5020063093,6.61812742494
1645113694671041245,,583,,1645113694,205431857,"""theodolite_n_1""",,1617284535,420040400,1,0,5.006030457,1.45974430783,6.80057894803
1645113694792026863,,584,,1645113694,355308758,"""theodolite_n_2""",,1616541882,315277556,2,0,4.55734385882,1.49968788026,5.50298235919
1645113694916493567,,585,,1645113694,476308769,"""theodolite_n_3""",,1616542549,991920634,3,0,5.10583876136,1.50200629926,6.61841742491
1645113695037074092,,586,,1645113694,605459929,"""theodolite_n_1""",,1617284535,820068472,1,0,5.00603078687,1.45974993638,6.80102896749
1645113695169306337,,587,,1645113694,755313549,"""theodolite_n_2""",,1616541882,715282347,2,0,4.55734423581,1.49968793289,5.50287235931
1645113695288276251,,588,,1645113694,876315748,"""theodolite_n_3""",,1616542550,391927613,3,0,5.10583945251,1.50200626026,6.61818742483
1645113695410399203,,589,,1645113695,5454877,"""theodolite_n_1""",,1617284536,220063420,1,0,5.00603033134,1.45975142373,6.80043897263
1645113695535919699,,590,,1645113694,755313549,"""theodolite_n_2""",,1616541882,715282347,2,0,4.55734423581,1.49968793289,5.50287235931
1645113695656304066,,591,,1645113695,276317102,"""theodolite_n_3""",,1616542550,791928967,3,0,5.10583916976,1.50200623733,6.61839742478
1645113695804436943,,592,,1645113695,5454877,"""theodolite_n_1""",,1617284536,220063420,1,0,5.00603033134,1.45975142373,6.80043897263
1645113695903732290,,593,,1645113695,155435216,"""theodolite_n_2""",,1616541883,115404014,2,0,4.55734378028,1.49968822591,5.50265235996
1645113696030381919,,594,,1645113695,276317102,"""theodolite_n_3""",,1616542550,791928967,3,0,5.10583916976,1.50200623733,6.61839742478
1645113696152581782,,595,,1645113695,405652481,"""theodolite_n_1""",,1617284536,620261024,1,0,5.00603128952,1.45975144003,6.80101897269
1645113696277086495,,596,,1645113695,555854955,"""theodolite_n_2""",,1616541883,515823753,2,0,4.55734390594,1.49969016996,5.50378236428
1645113696402736535,,597,,1645113695,677640904,"""theodolite_n_3""",,1616542551,193252769,3,0,5.10583971954,1.50200611866,6.61820742453
1645113696526245582,,598,,1645113695,804440189,"""theodolite_n_1""",,1617284537,19048732,1,0,5.00603193355,1.45975161067,6.80104897328
1645113696648657877,,599,,1645113695,955844434,"""theodolite_n_2""",,1616541883,915813232,2,0,4.55734332474,1.49969718912,5.50419237987
1645113696772429886,,600,,1645113696,79031997,"""theodolite_n_3""",,1616542551,594643862,3,0,5.10583953105,1.50200643005,6.6182574252
1645113696896535326,,601,,1645113696,205664148,"""theodolite_n_1""",,1617284537,420272691,1,0,5.00603119527,1.45975583237,6.80115898787
1645113697019818840,,602,,1645113696,355869278,"""theodolite_n_2""",,1616541884,315838076,2,0,4.55734308913,1.49969783691,5.5043723813
1645113697143285842,,603,,1645113696,476952935,"""theodolite_n_3""",,1616542551,992564800,3,0,5.10583898127,1.50200638758,6.6181274251
1645113697267166250,,604,,1645113696,605578939,"""theodolite_n_1""",,1617284537,820187482,1,0,5.00602775523,1.4597639004,6.80077901577
1645113697391366788,,605,,1645113696,755815736,"""theodolite_n_2""",,1616541884,715784534,2,0,4.55734313625,1.49969763766,5.50429238086
1645113697515392274,,606,,1645113696,877007934,"""theodolite_n_3""",,1616542552,392619799,3,0,5.10583934255,1.50200653563,6.61701742542
1645113697639052507,,607,,1645113697,5592064,"""theodolite_n_1""",,1617284538,220200607,1,0,5.00602348266,1.45976812699,6.80138903038
1645113697763225410,,608,,1645113697,155792715,"""theodolite_n_2""",,1616541885,115761513,2,0,4.55734238227,1.49969477001,5.50468237449
1645113697886920796,,609,,1645113697,275784445,"""theodolite_n_3""",,1616542552,791396310,3,0,5.10584006512,1.50200652405,6.6187074254
1645113698009489820,,610,,1645113697,405579772,"""theodolite_n_1""",,1617284538,620188315,1,0,5.00602282293,1.45976978106,6.8011990361
1645113698134074984,,611,,1645113697,555678079,"""theodolite_n_2""",,1616541885,515646877,2,0,4.55734156545,1.49969400701,5.5046123728
1645113698257292453,,612,,1645113697,678254653,"""theodolite_n_3""",,1616542553,193866518,3,0,5.10583986091,1.50200662214,6.61858742561
1645113698381828935,,613,,1645113697,805635657,"""theodolite_n_1""",,1617284539,20244200,1,0,5.00602172337,1.45976926734,6.80143903432
1645113698504917902,,614,,1645113697,955728287,"""theodolite_n_2""",,1616541885,915697085,2,0,4.55734142408,1.49969269891,5.50419236989
1645113698629726458,,615,,1645113698,75810174,"""theodolite_n_3""",,1616542553,591422039,3,0,5.10583997087,1.50200676651,6.61848742592
1645113698753673250,,616,,1645113698,205677168,"""theodolite_n_1""",,1617284539,420285711,1,0,5.00602362404,1.45976754026,6.80152902835
1645113698876838852,,617,,1645113698,355680631,"""theodolite_n_2""",,1616541886,315649429,2,0,4.55734161258,1.49969507234,5.50428237517
1645113698999429317,,618,,1645113698,479613871,"""theodolite_n_3""",,1616542553,995225736,3,0,5.10583986091,1.50200673693,6.61843742586
1645113699123212065,,619,,1645113698,605675136,"""theodolite_n_1""",,1617284539,820283679,1,0,5.00602362404,1.45976649861,6.80138902475
1645113699247224484,,620,,1645113698,755658443,"""theodolite_n_2""",,1616541886,715627241,2,0,4.5573400889,1.49969842407,5.50421238261
1645113699371752868,,621,,1645113698,875925538,"""theodolite_n_3""",,1616542554,391537403,3,0,5.10584041069,1.50200684555,6.61891742609
1645113699496528150,,622,,1645113699,5676282,"""theodolite_n_1""",,1617284540,220284825,1,0,5.00602258731,1.45976436643,6.80084901738
1645113699619213371,,623,,1645113699,155560370,"""theodolite_n_2""",,1616541887,115529168,2,0,4.55734029311,1.49969914054,5.5039723842
1645113699745446876,,624,,1645113699,277136788,"""theodolite_n_3""",,1616542554,792748653,3,0,5.10583973525,1.50200724866,6.61812742696
1645113699868027753,,625,,1645113699,405675605,"""theodolite_n_1""",,1617284540,620284148,1,0,5.00602159771,1.45976010804,6.80172900266
1645113699991700634,,626,,1645113699,556828808,"""theodolite_n_2""",,1616541887,516797606,2,0,4.55733908359,1.49969940423,5.50341238478
1645113700111766148,,627,,1645113699,675939027,"""theodolite_n_3""",,1616542555,191550892,3,0,5.10584026932,1.50200719303,6.61837742684
1645113700235584301,,628,,1645113699,805683938,"""theodolite_n_1""",,1617284541,20292481,1,0,5.00602082802,1.45975539145,6.80179898635
1645113700360650038,,629,,1645113699,956859068,"""theodolite_n_2""",,1616541887,916827866,2,0,4.5573379055,1.49970005429,5.50264238623
1645113700482355197,,630,,1645113700,78359391,"""theodolite_n_3""",,1616542555,593971256,3,0,5.10583990804,1.50200715341,6.61861742675
1645113700606929886,,631,,1645113700,205721386,"""theodolite_n_1""",,1617284541,420329929,1,0,5.00602078089,1.45975264862,6.80125897687
1645113700730565726,,632,,1645113699,956859068,"""theodolite_n_2""",,1616541887,916827866,2,0,4.5573379055,1.49970005429,5.50264238623
1645113700854985900,,633,,1645113700,78359391,"""theodolite_n_3""",,1616542555,593971256,3,0,5.10583990804,1.50200715341,6.61861742675
1645113700978294909,,634,,1645113700,205721386,"""theodolite_n_1""",,1617284541,420329929,1,0,5.00602078089,1.45975264862,6.80125897687
1645113701106770598,,635,,1645113700,355687453,"""theodolite_n_2""",,1616541888,315656251,2,0,4.55733840815,1.49970051474,5.50251238725
1645113701225881583,,636,,1645113700,475917152,"""theodolite_n_3""",,1616542555,991529017,3,0,5.10584015936,1.50200737951,6.61841742724
1645113701347529029,,637,,1645113700,605726698,"""theodolite_n_1""",,1617284541,820335241,1,0,5.00602043532,1.45975209036,6.80174897494
1645113701471949626,,638,,1645113700,755711151,"""theodolite_n_2""",,1616541888,715679949,2,0,4.55733744997,1.49970088557,5.50260238807
1645113701594824977,,639,,1645113700,877642829,"""theodolite_n_3""",,1616542556,393254694,3,0,5.10583926401,1.50200770787,6.61797742794
1645113701720145320,,640,,1645113701,5904667,"""theodolite_n_1""",,1617284542,220513210,1,0,5.0060201997,1.45975227614,6.80178897558
1645113701841938763,,641,,1645113701,155668599,"""theodolite_n_2""",,1616541889,115637397,2,0,4.55733580063,1.49970148589,5.50279238941
1645113701966165856,,642,,1645113701,276379704,"""theodolite_n_3""",,1616542556,791991569,3,0,5.10584041069,1.50200811361,6.61846742881
1645113702088556791,,643,,1645113701,405804093,"""theodolite_n_1""",,1617284542,620412636,1,0,5.00602068665,1.4597503255,6.80136896883
1645113702212455236,,644,,1645113701,556908859,"""theodolite_n_2""",,1616541889,516877657,2,0,4.55731969997,1.49971857596,5.50722242735
1645113702337240330,,645,,1645113701,677701995,"""theodolite_n_3""",,1616542557,193313860,3,0,5.1058575952,1.50194464276,6.64618729235
1645113702461252587,,646,,1645113701,807098781,"""theodolite_n_1""",,1617284543,21707324,1,0,5.00594553975,1.45975114936,6.82346897168
1645113702584393065,,647,,1645113701,958059328,"""theodolite_n_2""",,1616541889,918028126,2,0,4.55743454089,1.50109220201,5.6332554475
1645113702706707054,,648,,1645113702,76458609,"""theodolite_n_3""",,1616542557,592070474,3,0,5.1222717885,1.50875405122,6.94236122156
1645113702833527115,,649,,1645113702,205810187,"""theodolite_n_1""",,1617284543,420418730,1,0,5.03705798844,1.46925414721,7.17070042993
1645113702955432577,,650,,1645113702,356859171,"""theodolite_n_2""",,1616541890,316827969,2,0,4.57480728123,1.51665142746,5.98560557815
1645113703198270821,,651,,1645113702,605804145,"""theodolite_n_1""",,1617284543,820412688,1,0,5.04504763975,1.47872849234,7.36104900972
1645113703324395327,,652,,1645113702,756879900,"""theodolite_n_2""",,1616541890,716848698,2,0,4.58011135777,1.53510125329,6.25340159222
1645113703444682508,,653,,1645113702,876383870,"""theodolite_n_3""",,1616542558,391995735,3,0,5.13259210886,1.51683312034,7.47362588573
1645113703571304181,,654,,1645113703,5789457,"""theodolite_n_1""",,1617284544,220398000,1,0,5.05471721061,1.48780902718,7.59520379305
1645113703692481723,,655,,1645113703,156891567,"""theodolite_n_2""",,1616541891,116860365,2,0,4.5952511483,1.54460978871,6.52728088341
1645113703817386697,,656,,1645113703,277705692,"""theodolite_n_3""",,1616542558,793317557,3,0,5.1341895616,1.52137017444,7.77379323466
1645113703939273034,,657,,1645113703,405786176,"""theodolite_n_1""",,1617284544,620394719,1,0,5.06326385059,1.49306269153,7.79934696588
1645113704061952359,,658,,1645113703,554329119,"""theodolite_n_2""",,1616541891,514297917,2,0,4.60596746641,1.54669846025,6.77933254933
1645113704186225747,,659,,1645113703,676366942,"""theodolite_n_3""",,1616542559,191978807,3,0,5.13129684592,1.52427388872,8.06457760348
1645113704310019223,,660,,1645113703,805832843,"""theodolite_n_1""",,1617284545,20441386,1,0,5.06944714896,1.49635680434,8.04484478948
1645113704432973480,,661,,1645113703,954327816,"""theodolite_n_2""",,1616541891,914296614,2,0,4.61221122473,1.54695814186,7.10379274701
1645113704557510698,,662,,1645113704,78856109,"""theodolite_n_3""",,1616542559,594467974,3,0,5.12729926352,1.53015388654,8.4253156507
1645113704680950548,,663,,1645113704,205786124,"""theodolite_n_1""",,1617284545,420394667,1,0,5.07634575656,1.5025215352,8.3451185281
1645113704804077729,,664,,1645113704,354321306,"""theodolite_n_2""",,1616541892,314290104,2,0,4.61603016047,1.55146878171,7.44541584755
1645113704926983186,,665,,1645113704,476231525,"""theodolite_n_3""",,1616542559,991843390,3,0,5.12085199282,1.5366275524,8.75580327225
1645113705051121988,,666,,1645113704,607036071,"""theodolite_n_1""",,1617284545,821644614,1,0,5.07922223021,1.50737210599,8.5348085108
1645113705174717294,,667,,1645113704,754314795,"""theodolite_n_2""",,1616541892,714283593,2,0,4.60714597206,1.5588922662,7.70152957876
1645113705297623333,,668,,1645113704,878679442,"""theodolite_n_3""",,1616542560,394291307,3,0,5.11397964894,1.53450220477,9.00027091313
1645113705421535164,,669,,1645113705,4555863,"""theodolite_n_1""",,1617284546,219164406,1,0,5.07679414037,1.5070172278,8.80321780514
1645113705545748103,,670,,1645113705,155588024,"""theodolite_n_2""",,1616541893,115556822,2,0,4.60298097419,1.56533187711,7.95015143334
1645113705668972309,,671,,1645113705,277356421,"""theodolite_n_3""",,1616542560,792968286,3,0,5.11104423901,1.53212366673,9.2736381071
1645113705792963547,,672,,1645113705,405849144,"""theodolite_n_1""",,1617284546,620457687,1,0,5.08152848908,1.50838601068,9.0460705054
1645113705919689012,,673,,1645113705,155588024,"""theodolite_n_2""",,1616541893,115556822,2,0,4.60298097419,1.56533187711,7.95015143334
1645113706039719673,,674,,1645113705,277356421,"""theodolite_n_3""",,1616542560,792968286,3,0,5.11104423901,1.53212366673,9.2736381071
1645113706163329544,,675,,1645113705,405849144,"""theodolite_n_1""",,1617284546,620457687,1,0,5.08152848908,1.50838601068,9.0460705054
1645113706289462397,,676,,1645113705,555594951,"""theodolite_n_2""",,1616541893,515563749,2,0,4.59890232299,1.57033848487,8.25586198801
1645113706411215658,,677,,1645113705,678499858,"""theodolite_n_3""",,1616542561,194111723,3,0,5.10679078959,1.53296406679,9.57794911856
1645113706534964694,,678,,1645113705,805700602,"""theodolite_n_1""",,1617284547,20309145,1,0,5.08152757802,1.5090191663,9.33171173484
1645113706658971465,,679,,1645113705,955573024,"""theodolite_n_2""",,1616541893,915541822,2,0,4.58520592149,1.56707044274,8.53679171392
1645113706782523272,,680,,1645113706,77209806,"""theodolite_n_3""",,1616542561,592821671,3,0,5.09767024347,1.5291388115,9.85257433795
1645113706906802607,,681,,1645113706,205683102,"""theodolite_n_1""",,1617284547,420291645,1,0,5.07588708403,1.5067620783,9.60195729538
1645113707029021527,,682,,1645113706,355574534,"""theodolite_n_2""",,1616541894,315543332,2,0,4.57707478856,1.56517811336,8.79979140403
1645113707153458594,,683,,1645113706,477264649,"""theodolite_n_3""",,1616542561,992876514,3,0,5.09279254388,1.52408703366,10.1340673302
1645113707398617892,,684,,1645113706,754346513,"""theodolite_n_2""",,1616541894,714315311,2,0,4.56826073621,1.56391096415,9.08356113453
1645113707518513766,,685,,1645113706,877283712,"""theodolite_n_3""",,1616542562,392895577,3,0,5.09018277574,1.52199274193,10.4353441933
1645113707643813204,,686,,1645113707,6690081,"""theodolite_n_1""",,1617284548,221298624,1,0,5.07569208538,1.50260435143,10.2340787046
1645113707769643024,,687,,1645113707,155545107,"""theodolite_n_2""",,1616541895,115513905,2,0,4.54957744908,1.5570093915,9.5036787939
1645113707890430560,,688,,1645113707,278651993,"""theodolite_n_3""",,1616542562,794263858,3,0,5.08723300873,1.51996502403,10.7507710268
1645113708014996470,,689,,1645113707,406689664,"""theodolite_n_1""",,1617284548,621298207,1,0,5.07553425176,1.50078953531,10.6002547871
1645113708137297796,,690,,1645113707,555430575,"""theodolite_n_2""",,1616541895,515399373,2,0,4.5448313351,1.55318833637,9.73244686369
1645113708263170345,,691,,1645113707,678724701,"""theodolite_n_3""",,1616542563,194336566,3,0,5.0871909271,1.51794261623,11.0796777417
1645113708385936866,,692,,1645113707,805421383,"""theodolite_n_1""",,1617284549,20029926,1,0,5.07872301543,1.49837768063,10.9645794228
1645113708509461672,,693,,1645113707,955427711,"""theodolite_n_2""",,1616541895,915396509,2,0,4.53663523403,1.54867246373,10.0550239996
1645113708633280658,,694,,1645113708,79896211,"""theodolite_n_3""",,1616542563,595508076,3,0,5.08789310447,1.51605127874,11.3820845549
1645113708756726501,,695,,1645113708,206544403,"""theodolite_n_1""",,1617284549,421152946,1,0,5.08156290523,1.49767035782,11.3034178155
1645113708881199025,,696,,1645113708,355415836,"""theodolite_n_2""",,1616541896,315384634,2,0,4.52776400469,1.54716401803,10.3594829022
1645113709005587206,,697,,1645113708,479917357,"""theodolite_n_3""",,1616542563,995529222,3,0,5.0900254919,1.51446176405,11.6523517911
1645113709127286686,,698,,1645113708,606685237,"""theodolite_n_1""",,1617284549,821293780,1,0,5.08527199518,1.49823108232,11.625379091
1645113709251699633,,699,,1645113708,755289690,"""theodolite_n_2""",,1616541896,715258488,2,0,4.52131901165,1.54679689586,10.6620326245
1645113709374951280,,700,,1645113708,878647409,"""theodolite_n_3""",,1616542564,394259274,3,0,5.09484372114,1.51428659355,11.9124214817
1645113709501564703,,701,,1645113709,6563778,"""theodolite_n_1""",,1617284550,221172321,1,0,5.09231469193,1.49872395268,11.935940204
1645113709622150312,,702,,1645113709,155170991,"""theodolite_n_2""",,1616541897,115139789,2,0,4.52148304991,1.54364714768,10.9799400701
1645113709745585671,,703,,1645113709,277347773,"""theodolite_n_3""",,1616542564,792959638,3,0,5.10932569358,1.51533960311,12.2717133271
1645113709881371835,,704,,1645113709,406559559,"""theodolite_n_1""",,1617284550,621168102,1,0,5.11088238416,1.49735280914,12.3437170889
1645113709991935798,,705,,1645113709,555037918,"""theodolite_n_2""",,1616541897,515006716,2,0,4.52646663688,1.5390659814,11.2980058066
1645113710118263242,,706,,1645113709,678613190,"""theodolite_n_3""",,1616542565,194225055,3,0,5.11562064415,1.51508577453,12.4656228854
1645113710239818754,,707,,1645113709,806627424,"""theodolite_n_1""",,1617284551,21235967,1,0,5.12051620369,1.49837954024,12.631789427
1645113710363630849,,708,,1645113709,953841043,"""theodolite_n_2""",,1616541897,913809841,2,0,4.5287984369,1.53677263474,11.6097734282
1645113710502295878,,709,,1645113710,77357513,"""theodolite_n_3""",,1616542565,592969378,3,0,5.12538904952,1.51523151106,12.7252431393
1645113710611593384,,710,,1645113710,206539663,"""theodolite_n_1""",,1617284551,421148206,1,0,5.13521681528,1.49832131506,12.9109292953
1645113710736869827,,711,,1645113710,355039793,"""theodolite_n_2""",,1616541898,315008591,2,0,4.54051720582,1.53616631981,11.9005727722
1645113710859156584,,712,,1645113710,477369388,"""theodolite_n_3""",,1616542565,992981253,3,0,5.13921076914,1.51452179551,12.9525718969
1645113710982581087,,713,,1645113710,206539663,"""theodolite_n_1""",,1617284551,421148206,1,0,5.13521681528,1.49832131506,12.9109292953
1645113711104223413,,714,,1645113710,355039793,"""theodolite_n_2""",,1616541898,315008591,2,0,4.54051720582,1.53616631981,11.9005727722
1645113711227427610,,715,,1645113710,477369388,"""theodolite_n_3""",,1616542565,992981253,3,0,5.13921076914,1.51452179551,12.9525718969
1645113711352407529,,716,,1645113710,606578465,"""theodolite_n_1""",,1617284551,821187008,1,0,5.15121831325,1.49711091571,13.1414965332
1645113711474739666,,717,,1645113710,755067710,"""theodolite_n_2""",,1616541898,715036508,2,0,4.55004509085,1.53751637611,12.1593942174
1645113711599273041,,718,,1645113710,878684596,"""theodolite_n_3""",,1616542566,394296461,3,0,5.15194012558,1.51435525233,13.1950716031
1645113711722494154,,719,,1645113711,5565392,"""theodolite_n_1""",,1617284552,220173935,1,0,5.16537233484,1.4973635776,13.4153571136
1645113711848504335,,720,,1645113711,155079949,"""theodolite_n_2""",,1616541899,115048747,2,0,4.55919593764,1.53694516191,12.4669036128
1645113711970439427,,721,,1645113711,278661523,"""theodolite_n_3""",,1616542566,794273388,3,0,5.16527576228,1.51351314578,13.4410001043
1645113712094281935,,722,,1645113711,405536850,"""theodolite_n_1""",,1617284552,620145393,1,0,5.18486056084,1.49731991823,13.7040870134
1645113712217632347,,723,,1645113711,555096772,"""theodolite_n_2""",,1616541899,515065570,2,0,4.5720866777,1.53579633146,12.7912523663
1645113712340684394,,724,,1645113711,678669752,"""theodolite_n_3""",,1616542567,194281617,3,0,5.18364094745,1.51485922362,13.6625124895
1645113712464859456,,725,,1645113711,805586069,"""theodolite_n_1""",,1617284553,20194612,1,0,5.20646075392,1.49813084017,13.9597488637
1645113712587968859,,726,,1645113711,955087918,"""theodolite_n_2""",,1616541899,915056716,2,0,4.58362775813,1.535581874,13.058952129
1645113712712952070,,727,,1645113712,79928189,"""theodolite_n_3""",,1616542567,595540054,3,0,5.19961748547,1.51628603819,13.8275849565
1645113712839840071,,728,,1645113712,205607266,"""theodolite_n_1""",,1617284553,420215809,1,0,5.22256969436,1.49884418007,14.1670704744
1645113712959955967,,729,,1645113712,355074949,"""theodolite_n_2""",,1616541900,315043747,2,0,4.59566348233,1.53564627603,13.3200422004
1645113713087973849,,730,,1645113712,478682512,"""theodolite_n_3""",,1616542567,994294377,3,0,5.21364912632,1.51514791788,14.0444729938
1645113713326439511,,731,,1645113712,755096563,"""theodolite_n_2""",,1616541900,715065361,2,0,4.61136467547,1.53463716861,13.5981110671
1645113713447903756,,732,,1645113712,878662043,"""theodolite_n_3""",,1616542568,394273908,3,0,5.23064820563,1.51408540732,14.2722211252
1645113713572230220,,733,,1645113713,6790235,"""theodolite_n_1""",,1617284554,221398778,1,0,5.26059853206,1.50035982778,14.6481138445
1645113713698782900,,734,,1645113713,155193698,"""theodolite_n_2""",,1616541901,115162496,2,0,4.62972805422,1.53611829301,13.8730227197
1645113713820145827,,735,,1645113713,278678136,"""theodolite_n_3""",,1616542568,794290001,3,0,5.24931539209,1.51486167508,14.5151224938
1645113713942863227,,736,,1645113713,405542006,"""theodolite_n_1""",,1617284554,620150549,1,0,5.27916116633,1.50254929846,14.8959785873
1645113714066079616,,737,,1645113713,555246667,"""theodolite_n_2""",,1616541901,515215465,2,0,4.64580237431,1.53710119811,14.1213137789
1645113714189775047,,738,,1645113713,677394178,"""theodolite_n_3""",,1616542569,193006043,3,0,5.26603325174,1.51402638004,14.7218910204
1645113714315812154,,739,,1645113713,806791589,"""theodolite_n_1""",,1617284555,21400132,1,0,5.30062974238,1.50192289217,15.0845072456
1645113714438845607,,740,,1645113713,955162188,"""theodolite_n_2""",,1616541901,915130986,2,0,4.66702455525,1.5352104673,14.3621917148
1645113714565188379,,741,,1645113714,77346626,"""theodolite_n_3""",,1616542569,592958491,3,0,5.28802801314,1.5149019842,14.9320325644
1645113714685795168,,742,,1645113714,205531849,"""theodolite_n_1""",,1617284555,420140392,1,0,5.32493761134,1.50174445138,15.3071468611
1645113714810341979,,743,,1645113714,355058854,"""theodolite_n_2""",,1616541902,315027652,2,0,4.68737693915,1.53341512768,14.6225896524
1645113714935479947,,744,,1645113714,477349698,"""theodolite_n_3""",,1616542569,992961563,3,0,5.30931720425,1.51544580356,15.1485435114
1645113715055992903,,745,,1645113714,606678828,"""theodolite_n_1""",,1617284555,821287371,1,0,5.34862281663,1.50165541239,15.5090766689
1645113715179856414,,746,,1645113714,755123802,"""theodolite_n_2""",,1616541902,715092600,2,0,4.70902548133,1.53247826176,14.8753785365
1645113715303459857,,747,,1645113714,877341834,"""theodolite_n_3""",,1616542570,392953699,3,0,5.33203940144,1.5171324419,15.3408263902
1645113715426255097,,748,,1645113715,6679713,"""theodolite_n_1""",,1617284556,221288256,1,0,5.37311313357,1.503307498,15.6964701951
1645113715551136727,,749,,1645113715,155085104,"""theodolite_n_2""",,1616541903,115053902,2,0,4.7280978233,1.5340400444,15.0913903816
1645113715793841358,,750,,1645113715,406690599,"""theodolite_n_1""",,1617284556,621299142,1,0,5.39496047574,1.50409265753,15.8672618413
1645113715916971794,,751,,1645113715,155085104,"""theodolite_n_2""",,1616541903,115053902,2,0,4.7280978233,1.5340400444,15.0913903816
1645113716040045684,,752,,1645113715,278615271,"""theodolite_n_3""",,1616542570,794227136,3,0,5.35151744868,1.51817248143,15.5052681215
1645113716165070294,,753,,1645113715,406690599,"""theodolite_n_1""",,1617284556,621299142,1,0,5.39496047574,1.50409265753,15.8672618413
1645113716288272372,,754,,1645113715,555099322,"""theodolite_n_2""",,1616541903,515068120,2,0,4.74895912949,1.53416850191,15.32616053
1645113716413727241,,755,,1645113715,677545063,"""theodolite_n_3""",,1616542571,193156928,3,0,5.3731054995,1.51976534946,15.6816907081
1645113716535790481,,756,,1645113715,806734505,"""theodolite_n_1""",,1617284557,21343048,1,0,5.41880166111,1.50539306304,16.0249545258
1645113716671733342,,757,,1645113715,955060676,"""theodolite_n_2""",,1616541903,915029474,2,0,4.76868924242,1.53516969333,15.5096116691
1645113716783185845,,758,,1645113716,78772979,"""theodolite_n_3""",,1616542571,594384844,3,0,5.39309381993,1.52054784197,15.80496195
1645113716905620334,,759,,1645113716,205581327,"""theodolite_n_1""",,1617284557,420189870,1,0,5.43946449719,1.50594975556,16.159365659
1645113717028953483,,760,,1645113716,355037968,"""theodolite_n_2""",,1616541904,315006766,2,0,4.78666125726,1.53713196232,15.7092438116
1645113717151460203,,761,,1645113716,478753604,"""theodolite_n_3""",,1616542571,994365469,3,0,5.41105161907,1.5206855879,15.9541221666
1645113717276967944,,762,,1645113716,605539036,"""theodolite_n_1""",,1617284557,820147579,1,0,5.45767459763,1.50730929563,16.3019983862
1645113717397766285,,763,,1645113716,755046822,"""theodolite_n_2""",,1616541904,715015620,2,0,4.80468063162,1.53911516271,15.8863758558
1645113717521387472,,764,,1645113716,878801260,"""theodolite_n_3""",,1616542572,394413125,3,0,5.4294597341,1.52056492033,16.1054519769
1645113717646166900,,765,,1645113717,5537056,"""theodolite_n_1""",,1617284558,220145599,1,0,5.48036267712,1.5078400051,16.4520194352
1645113717768594748,,766,,1645113717,155118593,"""theodolite_n_2""",,1616541905,115087391,2,0,4.82663962599,1.5381233228,16.0813148487
1645113717893823873,,767,,1645113717,277543187,"""theodolite_n_3""",,1616542572,793155052,3,0,5.45176179039,1.52169458374,16.2771437357
1645113718016618890,,768,,1645113717,405414817,"""theodolite_n_1""",,1617284558,620023360,1,0,5.50286783738,1.50874262354,16.6144011994
1645113718139906460,,769,,1645113717,555023853,"""theodolite_n_2""",,1616541905,514992651,2,0,4.84732115455,1.53800091757,16.2701147223
1645113718383608592,,770,,1645113717,805290181,"""theodolite_n_1""",,1617284559,19898724,1,0,5.52522911269,1.50967531726,16.7549129958
1645113718514032569,,771,,1645113717,955063957,"""theodolite_n_2""",,1616541905,915032755,2,0,4.86895560669,1.53824622395,16.4408849751
1645113718632108037,,772,,1645113718,76404228,"""theodolite_n_3""",,1616542573,592016093,3,0,5.49442512128,1.52334369808,16.6024962324
1645113718755195861,,773,,1645113718,205370077,"""theodolite_n_1""",,1617284559,419978620,1,0,5.54818724348,1.51028693102,16.8927741592
1645113718877845566,,774,,1645113718,355063332,"""theodolite_n_2""",,1616541906,315032130,2,0,4.89066742056,1.53874181203,16.6146554803
1645113719000936031,,775,,1645113718,477620739,"""theodolite_n_3""",,1616542573,993232604,3,0,5.51620916036,1.52487041497,16.7681584687
1645113719250030946,,776,,1645113718,755056821,"""theodolite_n_2""",,1616541906,715025619,2,0,4.9128376085,1.53914335805,16.808895884
1645113719369229868,,777,,1645113718,876340426,"""theodolite_n_3""",,1616542574,391952291,3,0,5.53827200008,1.52688657962,16.9457413113
1645113719492960890,,778,,1645113719,5325024,"""theodolite_n_1""",,1617284560,219933567,1,0,5.59281265607,1.51311918892,17.1947493956
1645113719616725844,,779,,1645113719,155056925,"""theodolite_n_2""",,1616541907,115025723,2,0,4.93137701068,1.54018461405,16.9732069076
1645113719743513290,,780,,1645113719,277601103,"""theodolite_n_3""",,1616542574,793212968,3,0,5.5561459344,1.52703122265,17.0956015104
1645113719864964094,,781,,1645113719,405350493,"""theodolite_n_1""",,1617284560,619959036,1,0,5.60933071042,1.51341365413,17.3196999258
1645113719988828037,,782,,1645113719,555057029,"""theodolite_n_2""",,1616541907,515025827,2,0,4.94797759467,1.54186316623,17.1265184871
1645113720112236705,,783,,1645113719,677621207,"""theodolite_n_3""",,1616542575,193233072,3,0,5.57225036666,1.52592287024,17.2488499683
1645113720235598723,,784,,1645113719,805319764,"""theodolite_n_1""",,1617284561,19928307,1,0,5.62669474854,1.51364277941,17.4474603365
1645113720359879328,,785,,1645113719,955054529,"""theodolite_n_2""",,1616541907,915023327,2,0,4.96636294886,1.54353791,17.292299976
1645113720482703617,,786,,1645113720,77617873,"""theodolite_n_3""",,1616542575,593229738,3,0,5.59062029563,1.52621692883,17.4206003811
1645113720606872502,,787,,1645113720,205332420,"""theodolite_n_1""",,1617284561,419940963,1,0,5.64708158,1.51428491662,17.6131114787
1645113720730377268,,788,,1645113719,955054529,"""theodolite_n_2""",,1616541907,915023327,2,0,4.96636294886,1.54353791,17.292299976
1645113720852992001,,789,,1645113720,77617873,"""theodolite_n_3""",,1616542575,593229738,3,0,5.59062029563,1.52621692883,17.4206003811
1645113720978710262,,790,,1645113720,205332420,"""theodolite_n_1""",,1617284561,419940963,1,0,5.64708158,1.51428491662,17.6131114787
1645113721099177956,,791,,1645113720,355320414,"""theodolite_n_2""",,1616541908,315289212,2,0,4.98684464071,1.54319808193,17.4848496809
1645113721346570669,,792,,1645113720,605368930,"""theodolite_n_1""",,1617284561,819977473,1,0,5.66922976108,1.51518157583,17.8004130524
1645113721466533167,,793,,1645113720,754601560,"""theodolite_n_2""",,1616541908,714570358,2,0,5.00864820479,1.54160301693,17.679968248
1645113721596528069,,794,,1645113720,877886675,"""theodolite_n_3""",,1616542576,393498540,3,0,5.63209445517,1.52981264692,17.8880452129
1645113721720040245,,795,,1645113721,5336586,"""theodolite_n_1""",,1617284562,219945129,1,0,5.68655578594,1.51632820527,17.9809350285
1645113721838535082,,796,,1645113721,155847914,"""theodolite_n_2""",,1616541909,115816712,2,0,5.0264996296,1.54230103498,17.8412188848
1645113722081846450,,797,,1645113721,405329034,"""theodolite_n_1""",,1617284562,619937577,1,0,5.70061438165,1.51705756015,18.1367462642
1645113722206567276,,798,,1645113721,555849685,"""theodolite_n_2""",,1616541909,515818483,2,0,5.04265941672,1.54409971778,18.0211804561
1645113722331142660,,799,,1645113721,677910269,"""theodolite_n_3""",,1616542577,193522134,3,0,5.66063090783,1.53089021209,18.367086583
1645113722572539071,,800,,1645113721,954581143,"""theodolite_n_2""",,1616541909,914549941,2,0,5.0572300292,1.54502833524,18.2589912281
1645113722696696210,,801,,1645113722,76649175,"""theodolite_n_3""",,1616542577,592261040,3,0,5.67352730275,1.5313042209,18.6438470998
1645113722824126727,,802,,1645113722,205323200,"""theodolite_n_1""",,1617284563,419931743,1,0,5.72799854525,1.51865313681,18.5847089103
1645113722943536413,,803,,1645113722,353312236,"""theodolite_n_2""",,1616541910,313281034,2,0,5.07158605519,1.54531643646,18.5217314622
1645113723187016180,,804,,1645113722,605352367,"""theodolite_n_1""",,1617284563,819960910,1,0,5.74434753479,1.51959645791,18.8491504376
1645113723309630415,,805,,1645113722,753344215,"""theodolite_n_2""",,1616541910,713313013,2,0,5.08654123003,1.54540315399,18.8133215321
1645113723432246608,,806,,1645113722,876691206,"""theodolite_n_3""",,1616542578,392303071,3,0,5.701683607,1.53401153181,19.2254003486
1645113723556297336,,807,,1645113723,5350335,"""theodolite_n_1""",,1617284564,219958878,1,0,5.75880530126,1.52065192667,19.1276721137
1645113723679391211,,808,,1645113723,154590153,"""theodolite_n_2""",,1616541911,114558951,2,0,5.09977716829,1.54560523025,19.1119616942
1645113724093101163,,809,,1645113723,405326220,"""theodolite_n_1""",,1617284564,619934763,1,0,5.77327349782,1.52190764883,19.405274063
1645113724217575010,,810,,1645113723,554598590,"""theodolite_n_2""",,1616541911,514567388,2,0,5.11355748172,1.54654535214,19.4064824318
1645113724340253049,,811,,1645113723,277959226,"""theodolite_n_3""",,1616542578,793571091,3,0,5.71456322582,1.53507283799,19.5309515603
1645113724464496098,,812,,1645113723,805293929,"""theodolite_n_1""",,1617284565,19902472,1,0,5.7881739147,1.52371298563,19.6850867799
